[
    {
        "id": 2643743,
        "name": "London",
        "state": "",
        "country": "GB",
        "coord": {
            "lon": -0.12574,
            "lat": 51.50853
        }
    },
    {
        "id": 6942553,
        "name": "Paris",
        "state": "",
        "country": "FR",
        "coord": {
            "lon": -80.383331,
            "lat": 43.200001
        }
    },
    {
        "id": 7522361,
        "name": "Prague",
        "state": "",
        "country": "CZ",
        "coord": {
            "lon": 26.52499,
            "lat": 58.241989
        }
    },
    {
        "id": 7517817,
        "name": "Moscow",
        "state": "",
        "country": "RU",
        "coord": {
            "lon": 107.864021,
            "lat": 36.008438
        }
    },
    {
        "id": 6054238,
        "name": "Warsaw",
        "state": "",
        "country": "PL",
        "coord": {
            "lon": -75.249313,
            "lat": 45.333401
        }
    }
]